{
"type": "FeatureCollection",
"crs": { "type": "name", "properties": { "name": "urn:ogc:def:crs:OGC:1.3:CRS84" } },
"features": [
{ "type": "Feature", "properties": { "OBJECTID": 1, "F_CODE": 4005, "TYPE": "University", "NAME": "Kabul University", "COMMENTS": null }, "geometry": { "type": "Point", "coordinates": [ 69.134152647919294, 34.517631505042431 ] } },
{ "type": "Feature", "properties": { "OBJECTID": 2, "F_CODE": 4006, "TYPE": "Institute", "NAME": "Poly Technic Institute", "COMMENTS": null }, "geometry": { "type": "Point", "coordinates": [ 69.118744001465245, 34.534712671075532 ] } },
{ "type": "Feature", "properties": { "OBJECTID": 3, "F_CODE": 4004, "TYPE": "Professional School", "NAME": "Police Academy", "COMMENTS": null }, "geometry": { "type": "Point", "coordinates": [ 69.114796317908741, 34.533988168745289 ] } },
{ "type": "Feature", "properties": { "OBJECTID": 4, "F_CODE": 4003, "TYPE": "High School", "NAME": "Estiqlal High School", "COMMENTS": null }, "geometry": { "type": "Point", "coordinates": [ 69.176001302348794, 34.522514082946209 ] } },
{ "type": "Feature", "properties": { "OBJECTID": 5, "F_CODE": 4003, "TYPE": "High School", "NAME": "Amani High School", "COMMENTS": null }, "geometry": { "type": "Point", "coordinates": [ 69.182644475534062, 34.529157256317646 ] } },
{ "type": "Feature", "properties": { "OBJECTID": 6, "F_CODE": 4003, "TYPE": "High School", "NAME": "Aryana Afghan Turk School", "COMMENTS": null }, "geometry": { "type": "Point", "coordinates": [ 69.170231179956332, 34.514488222831318 ] } },
{ "type": "Feature", "properties": { "OBJECTID": 7, "F_CODE": 4003, "TYPE": "High School", "NAME": "Habibya High School", "COMMENTS": null }, "geometry": { "type": "Point", "coordinates": [ 69.148325687451873, 34.502599541906704 ] } },
{ "type": "Feature", "properties": { "OBJECTID": 8, "F_CODE": 4003, "TYPE": "High School", "NAME": "Ghazi High School", "COMMENTS": null }, "geometry": { "type": "Point", "coordinates": [ 69.145444867961146, 34.511265543003852 ] } },
{ "type": "Feature", "properties": { "OBJECTID": 9, "F_CODE": 4003, "TYPE": "High School", "NAME": "Ayisha-i-Durani", "COMMENTS": null }, "geometry": { "type": "Point", "coordinates": [ 69.175653682807436, 34.517342633894927 ] } },
{ "type": "Feature", "properties": { "OBJECTID": 10, "F_CODE": 4003, "TYPE": "High School", "NAME": "Nadiria High School", "COMMENTS": null }, "geometry": { "type": "Point", "coordinates": [ 69.139889714977542, 34.53420918372445 ] } },
{ "type": "Feature", "properties": { "OBJECTID": 11, "F_CODE": 4003, "TYPE": "High School", "NAME": "Maryam High School", "COMMENTS": null }, "geometry": { "type": "Point", "coordinates": [ 69.13737194226789, 34.575244552328364 ] } },
{ "type": "Feature", "properties": { "OBJECTID": 12, "F_CODE": 4003, "TYPE": "High School", "NAME": "Takhnik Sanawee", "COMMENTS": null }, "geometry": { "type": "Point", "coordinates": [ 69.139756475935926, 34.514288205570551 ] } },
{ "type": "Feature", "properties": { "OBJECTID": 13, "F_CODE": 4003, "TYPE": "High School", "NAME": "Harbi Showunzay", "COMMENTS": null }, "geometry": { "type": "Point", "coordinates": [ 69.112717502311099, 34.502764057309314 ] } },
{ "type": "Feature", "properties": { "OBJECTID": 14, "F_CODE": 4003, "TYPE": "High School", "NAME": "Zarghoona High School", "COMMENTS": null }, "geometry": { "type": "Point", "coordinates": [ 69.168802206628754, 34.541924637784909 ] } },
{ "type": "Feature", "properties": { "OBJECTID": 15, "F_CODE": 4003, "TYPE": "High School", "NAME": "Khayr Khana High School", "COMMENTS": null }, "geometry": { "type": "Point", "coordinates": [ 69.123221244875708, 34.580711785792737 ] } },
{ "type": "Feature", "properties": { "OBJECTID": 16, "F_CODE": 4003, "TYPE": "High School", "NAME": "Takhnikum Kabul", "COMMENTS": null }, "geometry": { "type": "Point", "coordinates": [ 69.164657771179293, 34.47794744302805 ] } },
{ "type": "Feature", "properties": { "OBJECTID": 17, "F_CODE": 4003, "TYPE": "High School", "NAME": "Mahmoodi Tarzi", "COMMENTS": null }, "geometry": { "type": "Point", "coordinates": [ 69.118720535254454, 34.468797101665125 ] } },
{ "type": "Feature", "properties": { "OBJECTID": 18, "F_CODE": 4003, "TYPE": "High School", "NAME": "Malalay High School", "COMMENTS": null }, "geometry": { "type": "Point", "coordinates": [ 69.166907697714834, 34.526457352955177 ] } },
{ "type": "Feature", "properties": { "OBJECTID": 19, "F_CODE": 4005, "TYPE": "University", "NAME": "Medical University", "COMMENTS": null }, "geometry": { "type": "Point", "coordinates": [ 69.132093336924413, 34.519438616003775 ] } },
{ "type": "Feature", "properties": { "OBJECTID": 20, "F_CODE": 4004, "TYPE": "Professional School", "NAME": "Police Trainning Center", "COMMENTS": null }, "geometry": { "type": "Point", "coordinates": [ 69.242577300637009, 34.547606106417355 ] } },
{ "type": "Feature", "properties": { "OBJECTID": 21, "F_CODE": 4005, "TYPE": "University", "NAME": "Shaheed Professor Burhanudin Rabani University", "COMMENTS": null }, "geometry": { "type": "Point", "coordinates": [ 69.112400471827016, 34.532721525898531 ] } },
{ "type": "Feature", "properties": { "OBJECTID": 22, "F_CODE": 4005, "TYPE": "University", "NAME": "American University of Afghanistan", "COMMENTS": null }, "geometry": { "type": "Point", "coordinates": [ 69.126186619781208, 34.475692494389804 ] } }
]
}
