{
"type": "FeatureCollection",
"crs": { "type": "name", "properties": { "name": "urn:ogc:def:crs:OGC:1.3:CRS84" } },
"features": [
{ "type": "Feature", "properties": { "OBJECTID": 8, "F_CODE": 2012, "TYPE": "Goverment Office", "NAME": "Directorate of Private Sector Transport", "COMMENTS": null, "GlobalID": "{8E1815C5-ABDC-4457-B0AC-06090DE7DF8C}", "X_Coord": "62.199567*", "Y_Coord": "34.348173*", "Latitude": "34° 20' 53.426\" N", "Longitude": "62° 11' 58.444\" E" }, "geometry": { "type": "Point", "coordinates": [ 62.19956773638102, 34.348173930439096 ] } },
{ "type": "Feature", "properties": { "OBJECTID": 11, "F_CODE": 2012, "TYPE": "Goverment Office", "NAME": "Herat Municipality", "COMMENTS": null, "GlobalID": "{56791802-236C-4E84-A0C5-5D24FCCE70EE}", "X_Coord": "62.189984*", "Y_Coord": "34.349049*", "Latitude": "34° 20' 56.578\" N", "Longitude": "62° 11' 23.944\" E" }, "geometry": { "type": "Point", "coordinates": [ 62.189984427148964, 34.349049414369766 ] } },
{ "type": "Feature", "properties": { "OBJECTID": 26, "F_CODE": 2012, "TYPE": "Goverment Office", "NAME": "High Court", "COMMENTS": null, "GlobalID": "{FBE35F46-2BBA-44C2-94BB-4E4E08D28E97}", "X_Coord": "62.214137*", "Y_Coord": "34.351066*", "Latitude": "34° 21' 3.839\" N", "Longitude": "62° 12' 50.895\" E" }, "geometry": { "type": "Point", "coordinates": [ 62.214137633260783, 34.351066490812279 ] } },
{ "type": "Feature", "properties": { "OBJECTID": 27, "F_CODE": 2012, "TYPE": "Goverment Office", "NAME": "Governor Office", "COMMENTS": null, "GlobalID": "{4612D584-9D2D-4B37-B756-0A10D6A29463}", "X_Coord": "62.216337*", "Y_Coord": "34.349993*", "Latitude": "34° 20' 59.975\" N", "Longitude": "62° 12' 58.816\" E" }, "geometry": { "type": "Point", "coordinates": [ 62.216337878518864, 34.349993003849328 ] } },
{ "type": "Feature", "properties": { "OBJECTID": 58, "F_CODE": 2012, "TYPE": "Goverment Office", "NAME": "Fire Department", "COMMENTS": null, "GlobalID": "{C2248F72-356B-4FA2-80B4-F7D4195E5457}", "X_Coord": "62.217483*", "Y_Coord": "34.342086*", "Latitude": "34° 20' 31.512\" N", "Longitude": "62° 13' 2.942\" E" }, "geometry": { "type": "Point", "coordinates": [ 62.217483888143136, 34.342086674277532 ] } },
{ "type": "Feature", "properties": { "OBJECTID": 60, "F_CODE": 2012, "TYPE": "Goverment Office", "NAME": "Injil Distric HQ and Police HQ", "COMMENTS": null, "GlobalID": "{46293A74-1FB1-4B56-9948-68733132D980}", "X_Coord": "62.216683*", "Y_Coord": "34.313048*", "Latitude": "34° 18' 46.973\" N", "Longitude": "62° 13' 0.059\" E" }, "geometry": { "type": "Point", "coordinates": [ 62.216683138991343, 34.313048156365596 ] } },
{ "type": "Feature", "properties": { "OBJECTID": 64, "F_CODE": 2012, "TYPE": "Goverment Office", "NAME": "Guzara District Office", "COMMENTS": null, "GlobalID": "{300C5C32-8CD7-4035-A79F-D24B16494D5E}", "X_Coord": "62.219862*", "Y_Coord": "34.243289*", "Latitude": "34° 14' 35.842\" N", "Longitude": "62° 13' 11.504\" E" }, "geometry": { "type": "Point", "coordinates": [ 62.219862098120274, 34.243289497329762 ] } },
{ "type": "Feature", "properties": { "OBJECTID": 68, "F_CODE": 2012, "TYPE": "Goverment Office", "NAME": "Department of Education", "COMMENTS": null, "GlobalID": "{2E54794F-A6F4-4D63-A483-17B24FD547CF}", "X_Coord": "62.213808*", "Y_Coord": "34.349664*", "Latitude": "34° 20' 58.790\" N", "Longitude": "62° 12' 49.711\" E" }, "geometry": { "type": "Point", "coordinates": [ 62.213808509126366, 34.349664021000542 ] } },
{ "type": "Feature", "properties": { "OBJECTID": 69, "F_CODE": 2012, "TYPE": "Goverment Office", "NAME": "Radio Television Afghanistan", "COMMENTS": null, "GlobalID": "{7CA61175-71E8-47F8-A633-6324FC05C4E3}", "X_Coord": "62.217795*", "Y_Coord": "34.349707*", "Latitude": "34° 20' 58.947\" N", "Longitude": "62° 13' 4.063\" E" }, "geometry": { "type": "Point", "coordinates": [ 62.217795299067312, 34.349707468802009 ] } },
{ "type": "Feature", "properties": { "OBJECTID": 70, "F_CODE": 2012, "TYPE": "Goverment Office", "NAME": "Department of Finance", "COMMENTS": null, "GlobalID": "{3A844F9E-D8C6-483A-A74B-3D203846CBBB}", "X_Coord": "62.218574*", "Y_Coord": "34.349630*", "Latitude": "34° 20' 58.668\" N", "Longitude": "62° 13' 6.868\" E" }, "geometry": { "type": "Point", "coordinates": [ 62.218574572297328, 34.349630136276708 ] } },
{ "type": "Feature", "properties": { "OBJECTID": 71, "F_CODE": 2012, "TYPE": "Goverment Office", "NAME": "Department of Mines", "COMMENTS": null, "GlobalID": "{1D86BF33-844F-4D9D-8322-A34529C5CDEA}", "X_Coord": "62.219865*", "Y_Coord": "34.349885*", "Latitude": "34° 20' 59.589\" N", "Longitude": "62° 13' 11.516\" E" }, "geometry": { "type": "Point", "coordinates": [ 62.219865429336878, 34.349885928412007 ] } },
{ "type": "Feature", "properties": { "OBJECTID": 72, "F_CODE": 2012, "TYPE": "Goverment Office", "NAME": "National Department of Security", "COMMENTS": null, "GlobalID": "{9B463068-38F6-4000-8BC6-DB7FBA427EBC}", "X_Coord": "62.218792*", "Y_Coord": "34.354764*", "Latitude": "34° 21' 17.153\" N", "Longitude": "62° 13' 7.653\" E" }, "geometry": { "type": "Point", "coordinates": [ 62.218792603892418, 34.354764749954477 ] } },
{ "type": "Feature", "properties": { "OBJECTID": 73, "F_CODE": 2012, "TYPE": "Goverment Office", "NAME": "Department of Women Affairs", "COMMENTS": null, "GlobalID": "{A9E75E38-39D9-486D-AC95-3B34C428DDF0}", "X_Coord": "62.228082*", "Y_Coord": "34.364124*", "Latitude": "34° 21' 50.847\" N", "Longitude": "62° 13' 41.097\" E" }, "geometry": { "type": "Point", "coordinates": [ 62.228082380339323, 34.364124140062401 ] } },
{ "type": "Feature", "properties": { "OBJECTID": 74, "F_CODE": 2012, "TYPE": "Goverment Office", "NAME": "Department of Agriculture", "COMMENTS": null, "GlobalID": "{3B2CB09A-4330-406E-B10D-FB64F27198B9}", "X_Coord": "62.206420*", "Y_Coord": "34.348637*", "Latitude": "34° 20' 55.097\" N", "Longitude": "62° 12' 23.114\" E" }, "geometry": { "type": "Point", "coordinates": [ 62.206420583854225, 34.348637925093307 ] } },
{ "type": "Feature", "properties": { "OBJECTID": 75, "F_CODE": 2012, "TYPE": "Goverment Office", "NAME": "Department of Culture and Tourism", "COMMENTS": null, "GlobalID": "{BBFDDD30-0D34-4EA6-B02F-4282AD3D3A84}", "X_Coord": "62.200573*", "Y_Coord": "34.348084*", "Latitude": "34° 20' 53.105\" N", "Longitude": "62° 12' 2.063\" E" }, "geometry": { "type": "Point", "coordinates": [ 62.200573058200931, 34.348084700087348 ] } },
{ "type": "Feature", "properties": { "OBJECTID": 76, "F_CODE": 2012, "TYPE": "Goverment Office", "NAME": "National Museum", "COMMENTS": null, "GlobalID": "{852B0F35-5676-4C31-9962-B9C268E21F7F}", "X_Coord": "62.197247*", "Y_Coord": "34.349072*", "Latitude": "34° 20' 56.660\" N", "Longitude": "62° 11' 50.092\" E" }, "geometry": { "type": "Point", "coordinates": [ 62.197247762483322, 34.349072176403126 ] } },
{ "type": "Feature", "properties": { "OBJECTID": 77, "F_CODE": 2012, "TYPE": "Goverment Office", "NAME": "Traffic Department", "COMMENTS": null, "GlobalID": "{AA22D3B3-51FE-4FF0-8864-BECDA785594C}", "X_Coord": "62.199844*", "Y_Coord": "34.344830*", "Latitude": "34° 20' 41.389\" N", "Longitude": "62° 11' 59.439\" E" }, "geometry": { "type": "Point", "coordinates": [ 62.199844260874421, 34.344830380060657 ] } },
{ "type": "Feature", "properties": { "OBJECTID": 78, "F_CODE": 2012, "TYPE": "Goverment Office", "NAME": "Deparment of Communication and IT", "COMMENTS": null, "GlobalID": "{11B6F816-AAD3-4F4A-9EF0-EDDB5DE8BF0A}", "X_Coord": "62.201078*", "Y_Coord": "34.346407*", "Latitude": "34° 20' 47.066\" N", "Longitude": "62° 12' 3.883\" E" }, "geometry": { "type": "Point", "coordinates": [ 62.201078694273761, 34.346407180720938 ] } },
{ "type": "Feature", "properties": { "OBJECTID": 79, "F_CODE": 2012, "TYPE": "Goverment Office", "NAME": "Irrigation Department", "COMMENTS": null, "GlobalID": "{680CEFE1-CA98-4985-888F-9942BA84FE6D}", "X_Coord": "62.198442*", "Y_Coord": "34.347394*", "Latitude": "34° 20' 50.620\" N", "Longitude": "62° 11' 54.393\" E" }, "geometry": { "type": "Point", "coordinates": [ 62.198442438514661, 34.347394476485739 ] } },
{ "type": "Feature", "properties": { "OBJECTID": 80, "F_CODE": 2012, "TYPE": "Goverment Office", "NAME": "Department of Public Health", "COMMENTS": null, "GlobalID": "{9AF02227-05B6-4DE4-9660-FBE4337885B4}", "X_Coord": "62.218145*", "Y_Coord": "34.327229*", "Latitude": "34° 19' 38.026\" N", "Longitude": "62° 13' 5.323\" E" }, "geometry": { "type": "Point", "coordinates": [ 62.218145377706826, 34.327229319500226 ] } }
]
}
